Country Name,Country Code,Latitude,Longitude,1990 [YR1990],1991 [YR1991],1992 [YR1992],1993 [YR1993],1994 [YR1994],1995 [YR1995],1996 [YR1996],1997 [YR1997],1998 [YR1998],1999 [YR1999],2000 [YR2000],2001 [YR2001],2002 [YR2002],2003 [YR2003],2004 [YR2004],2005 [YR2005],2006 [YR2006],2007 [YR2007],2008 [YR2008],2009 [YR2009],2010 [YR2010],2011 [YR2011],2012 [YR2012],2013 [YR2013],2014 [YR2014],2015 [YR2015],2016 [YR2016],2017 [YR2017]
Afghanistan,AFG,34.28,69.11,0.213449805,0.187672724,0.099666474,0.089154036,0.08003917,0.072698618,0.066044698,0.059648382,0.05520717,0.042332597,0.03850634,0.039002334,0.048715548,0.0518296,0.039377828,0.052948215,0.063728472,0.085417506,0.154101422,0.241722682,0.293836994,0.412016938,0.350370581,0.315601773,0.299444991,..,..,..
Albania,ALB,41.18,19.49,1.678106654,1.3122126,0.774724911,0.723790292,0.600203708,0.654537133,0.636625313,0.49036506,0.560271437,0.960164412,0.978174681,1.053304176,1.229540709,1.412697196,1.376212735,1.412498211,1.302576367,1.322334855,1.484311139,1.495600199,1.578573584,1.803714725,1.692908325,1.749211079,1.978763312,..,..,..
Algeria,DZA,36.42,3.08,2.970409071,2.976897628,2.948322021,2.958673674,3.046884957,3.296891314,3.301388016,2.922376836,3.527173598,2.991826199,2.817543547,2.665851517,2.810044593,2.826112964,2.69593129,3.22268315,2.992187469,3.189641475,3.161381458,3.423011434,3.299703688,3.291376176,3.46026581,3.507310029,3.717409901,..,..,..
Andorra,AND,42.31,1.32,7.467335669,7.182456636,6.912053389,6.736054846,6.494200424,6.662051684,7.065071473,7.239712718,7.660783886,7.975454404,8.019284294,7.786950001,7.590615141,7.315760706,7.358624941,7.299871936,6.746218716,6.519465912,6.427886622,6.121652341,6.122594702,5.867129945,5.916596911,5.900752587,5.832169951,..,..,..
Angola,AGO,8.5,13.15,0.420284254,0.405450105,0.400678653,0.430889258,0.281092579,0.769173426,0.712306341,0.489209377,0.47137391,0.574083595,0.580352661,0.573047493,0.720768849,0.497975073,0.996165478,0.979740026,1.098883898,1.197843982,1.181526759,1.232494515,1.243405585,1.252789255,1.330843018,1.254617218,1.291328315,..,..,..
Antigua and Barbuda,ATG,17.2,61.48,4.23352225,3.977164337,3.858476917,3.87997941,3.732497664,3.735788316,3.878986619,3.962335507,3.995303753,4.033068153,4.123971095,4.09566526,4.293313704,4.620874526,4.778147909,4.806998084,4.913644367,5.136472571,5.194500314,5.446757355,5.539567509,5.363407474,5.418446532,5.360453467,5.377648546,..,..,..
Argentina,ARG,36.3,60,3.426481983,3.52770381,3.605749117,3.457164549,3.542095019,3.656645582,3.811457285,3.851202695,3.857870916,4.010698763,3.835573665,3.568599866,3.291547735,3.52558427,4.06905838,4.141236814,4.434821452,4.382668884,4.682912395,4.410889894,4.558499612,4.600290699,4.569383676,4.462903755,4.746797455,..,..,..
Aruba,ABW,12.32,70.02,26.37450321,26.0461298,21.4425588,22.00078616,21.03624511,20.77193616,20.31835337,20.42681771,20.58766915,20.31156677,26.19487524,25.93402441,25.67116178,26.42045209,26.51729342,27.20070778,26.94826047,27.895574,26.23084664,25.91583295,24.67052887,24.5058352,13.15554169,8.351294252,8.408362638,..,..,..
Australia,AUS,35.15,149.08,15.45288167,15.12796621,15.31776851,15.7014518,15.57658628,15.59651881,16.50180039,16.51427321,16.93569585,17.19029769,17.20060983,16.73336743,17.37045177,16.90195895,17.02651535,17.16971145,17.65139831,17.86526004,18.16087566,18.20018196,17.74084505,17.53887776,17.07681906,16.10333614,15.39859985,..,..,..
Austria,AUT,48.12,16.22,7.513246156,7.944096184,7.226236428,7.223017309,7.189264701,7.521516107,7.938008299,7.863667996,7.981004261,7.741130615,7.774259739,8.192769898,8.299115796,8.889562334,8.858363703,9.020169598,8.727297872,8.406418936,8.295095978,7.518751102,8.071131802,7.748134305,7.387077163,7.369137466,6.87371322,..,..,..
"Bahamas, The",BHS,25.05,77.2,7.6104956,6.825173486,6.737820046,6.274733096,6.113992642,6.00804212,5.879294549,4.753542182,5.790133076,5.708374777,5.60101044,5.17748198,5.100353542,4.808098915,5.343724227,5.290297009,4.957323646,4.938208385,4.290906171,4.629528598,4.583343495,5.091832893,5.292937031,7.426540134,6.323257512,..,..,..
Bahrain,BHR,26.1,50.3,25.05885496,23.29978127,20.84164011,27.30693027,26.9092684,26.28769432,26.99547927,29.11139294,29.98959267,28.30850608,28.05091075,19.96600382,21.35410421,21.14840679,21.10015931,21.60193124,19.64708884,25.91595737,26.70821199,23.81170841,23.5854809,22.41333475,20.51485098,23.80435697,23.44975483,..,..,..
Bangladesh,BGD,23.43,90.26,0.146281294,0.146609266,0.159575353,0.153104602,0.163272688,0.192205167,0.198152233,0.202365814,0.190182468,0.19558517,0.211802225,0.242020016,0.246756218,0.25660216,0.266823041,0.275246594,0.299529173,0.301630726,0.332727819,0.357158767,0.393936699,0.412011186,0.433487963,0.442400828,0.459141965,..,..,..
Barbados,BRB,13.05,59.3,4.126491124,4.617521768,3.734358313,4.237227706,2.833429919,3.127812228,3.198983237,3.379280376,4.256155999,4.499854977,4.402894974,4.511188282,4.525025969,4.660219351,4.739998755,4.938242904,4.986412836,4.93979359,5.844583314,5.807257514,5.285997375,5.449513722,5.222107001,5.127146392,4.490177673,..,..,..
Belgium,BEL,50.51,4.21,10.63967167,11.09099988,11.14648251,10.67503455,11.1051094,11.08115205,11.62383425,11.32885202,11.60191455,11.17302675,11.2296677,11.13371551,10.3854951,10.88211417,10.66129022,10.35539299,10.151039,9.744777191,9.751984809,9.249615685,10.17146522,9.046560547,8.546478214,8.671352487,8.328159898,..,..,..
Belize,BLZ,17.18,88.3,1.66191243,1.880257003,1.830508911,1.911287548,1.854646608,1.824968714,1.441565735,1.754022906,1.608305397,1.457435593,1.601342418,1.754517931,1.650252092,1.607795489,1.421168536,1.48866657,1.526093133,1.597516144,1.425287018,1.868957631,1.676105694,1.82686092,1.415825911,1.491598897,1.407601494,..,..,..
Benin,BEN,6.23,2.42,0.142157591,0.159512217,0.168501162,0.205206743,0.221397671,0.224780453,0.207591276,0.193809928,0.187593089,0.234411619,0.232860969,0.256497596,0.285000234,0.313037269,0.323642156,0.299985405,0.471267009,0.531738987,0.507237393,0.521063185,0.553283259,0.559693354,0.562347006,0.580960914,0.614213852,..,..,..
Bermuda,BMU,27.31,89.45,8.468108418,9.133172938,7.885348579,9.150381939,8.963503034,8.899591604,8.781918874,8.667884358,8.54427908,8.37692747,8.36199117,8.448227313,8.85974059,8.859865772,9.147364292,9.088334321,10.11617563,11.24603933,9.943759288,7.262934975,9.347122413,6.872359209,7.356862866,7.051814587,8.838314988,..,..,..
Bhutan,BTN,27.31,89.45,0.238879169,0.348078484,0.407042002,0.350495205,0.411780764,0.484302076,0.579057237,0.742063417,0.703429831,0.690592474,0.690660881,0.653044437,0.689377786,0.605839592,0.481081773,0.603125919,0.583684405,0.571168834,0.601619231,0.544051575,0.67026322,0.990398509,1.086025018,1.203220818,1.289321371,..,..,..
Bolivia,BOL,16.2,68.1,0.839700279,0.858995776,0.933241509,1.076331229,1.164031109,1.301696086,1.27342178,1.390233717,1.369256318,1.276302527,1.327056787,1.014681791,1.201378773,1.259040432,1.239406557,1.335330942,1.621906742,1.30616895,1.37896562,1.433545061,1.532870644,1.602029322,1.835469055,1.818997383,1.932419499,..,..,..
Botswana,BWA,24.45,25.57,1.9613582,1.86102584,1.909275308,2.139318241,1.978706426,1.94206147,1.719127713,1.710752396,2.003027027,1.859535656,2.187461379,2.194012884,2.235280932,2.121745415,2.130846266,2.207093561,2.195251343,2.210450822,2.315483179,1.900285977,2.325924404,2.036091061,2.025409285,2.456718254,3.243287637,..,..,..
Brazil,BRA,15.47,47.55,1.398620609,1.443186893,1.427921974,1.468431889,1.516257008,1.591823026,1.726864217,1.793828678,1.835152374,1.853290732,1.871118313,1.898353874,1.844379611,1.762482362,1.828671981,1.858087992,1.839393859,1.901371917,2.008670258,1.883811784,2.132937571,2.211587235,2.343570115,2.488417184,2.594388285,..,..,..
British Virgin Islands,VGB,18.27,64.37,4.009841443,3.897838668,4.017124077,4.142800655,4.468978507,4.577033701,5.062496681,5.137986508,5.206165703,5.085991678,4.973407605,5.04353806,5.280180222,5.5005,5.531165432,5.698031768,5.982555951,6.079293195,6.301671614,6.239460052,6.330774317,6.30859109,6.1740503,6.057819383,6.072833581,..,..,..
Brunei Darussalam,BRN,4.52,115,23.93323802,19.94117338,19.03349722,17.63537663,16.21193334,16.1145051,15.98225134,16.21744787,16.50725514,11.98024451,14.14020184,13.25056672,12.62269977,12.99158717,13.90208971,13.70764162,13.13286158,22.45018193,24.04688439,20.48624704,21.10594553,24.60717794,24.18076388,19.23359197,22.12470124,..,..,..
Bulgaria,BGR,42.45,23.2,8.54301079,6.666757565,6.347137362,8.00979638,6.414520789,6.900326395,6.763241038,6.209849583,5.934325293,5.356718076,5.328034342,5.800066474,5.695266947,6.084370085,6.064891808,6.256282044,6.445333272,6.925435282,6.772087541,5.731193724,5.964900206,6.71538056,6.119456526,5.450695963,5.871615869,..,..,..
Burkina Faso,BFA,12.15,1.3,0.066173051,0.069287423,0.067840845,0.0656434,0.065745043,0.062147134,0.068229866,0.075639822,0.078563833,0.08255275,0.089716851,0.083504269,0.081733493,0.085194017,0.084705971,0.083875344,0.098375847,0.115526282,0.130556622,0.127633338,0.125717252,0.137496219,0.158663009,0.179132409,0.162018806,..,..,..
Burundi,BDI,3.16,29.18,0.038597042,0.043008469,0.038217221,0.039393228,0.039969978,0.039978645,0.040062492,0.040797127,0.040307438,0.040297088,0.042395011,0.031323575,0.031548442,0.023205146,0.027569697,0.020747407,0.024365963,0.023555045,0.023219419,0.022462399,0.024260032,0.02676196,0.030296973,0.03017577,0.044485376,..,..,..
Cambodia,KHM,11.33,104.55,0.140577279,0.140568039,0.140254164,0.139053748,0.143261962,0.1455984,0.147277486,0.136345287,0.168208993,0.15953358,0.162644456,0.18153944,0.174719537,0.185159888,0.18723252,0.209184397,0.222613711,0.253373751,0.28082695,0.330259355,0.350330567,0.358177248,0.369259354,0.372980821,0.437759998,..,..,..
Cameroon,CMR,3.5,11.35,0.148054522,0.091517436,0.305264893,0.305514332,0.291185813,0.314096492,0.323094881,0.227028801,0.220925365,0.206842771,0.224712545,0.218308253,0.212475488,0.229828383,0.23330822,0.212179525,0.215723212,0.317155402,0.293251264,0.346083304,0.33951502,0.281094803,0.290648216,0.312755732,0.314928068,..,..,..
Canada,CAN,45.27,75.42,15.65907038,15.14925974,15.46230657,15.45362956,15.6928759,15.93097506,16.15737155,16.51685906,16.7460786,16.89846016,17.36711469,16.98502952,16.55937785,17.46119914,17.25891114,17.25108328,16.69669436,16.85588274,16.87519788,15.96156016,15.723167,15.63975962,14.89063564,14.71068248,15.1132392,..,..,..
Caribbean small states,CSS,15.02,23.34,5.246910878,5.28404795,5.542774357,5.363284509,5.266637771,5.354095385,5.964375269,5.635280912,5.744898531,6.294031469,6.506692171,6.924531595,7.040816801,7.567341291,7.776927815,8.392102287,9.147516071,9.293786903,9.188087709,8.915001641,9.27710945,9.143734221,8.886377531,9.138025489,8.884541385,..,..,..
Cayman Islands,CYM,19.2,81.24,9.970251899,10.35203906,11.37406948,11.52098024,12.07895525,11.46226951,11.48124404,11.43458718,11.36828299,10.777708,11.17156428,10.83608828,10.90149314,10.75530112,9.768536333,9.728990992,9.674881573,11.11147369,11.01638136,10.2688701,10.04168844,10.36992524,9.307268397,9.172054616,9.171838032,..,..,..
Central African Republic,CAF,4.23,18.35,0.067358102,0.068118611,0.069885817,0.070314804,0.071821206,0.069998303,0.068306236,0.069851412,0.069315906,0.071813797,0.07128948,0.064111687,0.062874461,0.058942176,0.057875688,0.056853953,0.059345636,0.059175593,0.058227969,0.057449997,0.059350908,0.0622615,0.06533025,0.06601109,0.066593111,..,..,..
Chad,TCD,12.1,14.59,0.024008122,0.010732542,0.013283953,0.013984221,0.015161545,0.015714093,0.017218021,0.019085574,0.019376466,0.020063553,0.021098562,0.019894813,0.018738928,0.040774062,0.038897974,0.039704246,0.039057066,0.042878111,0.045780435,0.042718173,0.043496106,0.043865596,0.048200118,0.053328683,0.053777688,..,..,..
Chile,CHL,39.55,116.2,2.515810521,2.327632166,2.37545707,2.494295837,2.704048338,2.919931315,3.345311359,3.837728903,3.871743532,4.079267746,3.853499375,3.453563552,3.530720028,3.519261571,3.742118302,3.828453643,3.971510482,4.343916544,4.312294329,3.969555616,4.251715171,4.619729537,4.677982797,4.76586599,4.687376624,..,..,..
China,CHN,4.34,74,2.151570906,2.229439639,2.309463675,2.442800659,2.565993892,2.755754966,2.844309582,2.820567891,2.67674598,2.648649247,2.696862433,2.742120813,3.007083197,3.524074093,4.037990651,4.523178064,4.980314197,5.334909929,5.701915025,6.010102433,6.560520007,7.241515419,7.424750916,7.557211045,7.543907641,..,..,..
Colombia,COL,11.4,43.16,1.673025787,1.635914936,1.744983321,1.768803864,1.835016799,1.59218139,1.590776145,1.679619011,1.681616958,1.419215476,1.433620241,1.372902655,1.338899634,1.362244907,1.288989699,1.407985384,1.435824144,1.40690202,1.516403445,1.599905659,1.658923082,1.64912349,1.705398582,1.893103161,1.759537174,..,..,..
Comoros,COM,4.09,15.12,0.151457504,0.155721539,0.151234511,0.155079083,0.150716994,0.154272035,0.157598741,0.160720227,0.170761664,0.173348486,0.189314418,0.184706272,0.180298132,0.226353755,0.239461311,0.227828399,0.257569541,0.160026184,0.161805094,0.196081111,0.233942107,0.192025124,0.197567789,0.237378287,0.202814119,..,..,..
"Congo, Dem. Rep.",COD,9.55,84.02,0.117591197,0.082498968,0.075409546,0.066760984,0.040700233,0.051043515,0.054185516,0.043337889,0.037209307,0.030119807,0.017292618,0.017276319,0.018616172,0.019194831,0.022610101,0.027392924,0.028470592,0.030067893,0.030794399,0.028027156,0.031314551,0.037377088,0.034820686,0.050339213,0.063369191,..,..,..
"Congo, Rep.",COG,6.49,5.17,0.486838326,0.400657636,0.49661064,0.498439309,0.789298207,0.559366331,0.596048516,0.790965984,0.255015905,0.261899843,0.325124228,0.231136261,0.168972288,0.261740193,0.263422291,0.264306556,0.291079843,0.305257019,0.318099788,0.410345599,0.451406105,0.50055554,0.641061363,0.649833428,0.635369293,..,..,..
Costa Rica,CRI,45.5,15.58,0.954653351,1.05079938,1.163996186,1.183185055,1.538224124,1.385990192,1.320299928,1.354192887,1.411368081,1.434892041,1.394703986,1.441368065,1.556794835,1.605990202,1.655258443,1.616889851,1.647633189,1.858899789,1.835359367,1.760677795,1.665175303,1.682660743,1.668780062,1.614402173,1.630951062,..,..,..
Cote d'Ivoire,CIV,23.08,82.22,0.410408539,0.358909924,0.311456361,0.392468001,0.332757416,0.455196818,0.522835333,0.490010026,0.435158322,0.384467081,0.406991231,0.453421366,0.419561908,0.308844016,0.425832957,0.426769671,0.374162963,0.355057998,0.347554665,0.283812055,0.341512032,0.346951476,0.434007998,0.486455715,0.490206046,..,..,..
Cuba,CUB,50.05,14.22,3.150989961,2.786120615,2.915598587,2.721848856,2.971968608,2.357347848,2.462952691,2.238025426,2.21429973,2.280074427,2.339161379,2.275291775,2.325789771,2.266421577,2.21934889,2.304659777,2.426221024,2.370445059,2.691785692,2.641408453,3.386127443,3.169444662,3.176608348,3.049362141,3.045210624,..,..,..
Cyprus,CYP,4.2,15.15,5.706562886,5.988914981,6.471912007,6.655456909,6.741662386,6.293262441,6.797248298,6.575312615,7.049874327,6.886143297,7.347326262,7.129456764,7.187870407,7.798570398,7.258439643,7.300757645,7.449680491,7.704853381,7.930294398,7.386924038,6.927903563,6.60156823,6.096256416,5.199663256,5.260352041,..,..,..
Denmark,DNK,11.08,42.2,9.770698699,11.69331148,10.5045545,10.99825503,11.7169489,10.92454083,13.71465193,11.64768852,11.22730415,10.36266364,9.613175554,9.875092348,9.68193193,10.38827349,9.362701019,8.690076931,10.11291416,9.20201511,8.543351098,8.058895601,8.40721667,7.296383208,6.514800847,6.862565032,5.935712482,..,..,..
Djibouti,DJI,15.2,61.24,0.546573667,0.513632828,0.506776641,0.503957186,0.489038604,0.482815345,0.484237558,0.493776411,0.463350631,0.450453436,0.475248891,0.500470172,0.535636226,0.555888033,0.528103722,0.529037834,0.515825011,0.57084366,0.606017007,0.552127049,0.607471574,0.546278771,0.586763279,0.678855968,0.791961752,..,..,..
Dominica,DMA,18.3,69.59,0.827228379,0.828209254,0.826715514,0.8754248,0.924803497,1.130394575,1.030852484,1.140220203,1.095561246,1.154084946,1.473620759,1.579015358,1.47049725,1.674118671,1.615211924,1.661460914,1.605448614,2.170739958,1.857388074,1.853346249,1.950531915,1.789578627,1.883279662,1.823370166,1.864285911,..,..,..
Dominican Republic,DOM,8.29,125.34,1.284840277,1.371066238,1.46266565,1.545528489,1.609061051,2.012746149,2.157968757,2.205103784,2.217515361,2.202171949,2.311301258,2.278507636,2.415109906,2.399070559,2.011351755,2.017778384,2.111060875,2.227743225,2.149242258,2.070810108,2.123958664,2.117090045,2.178544552,2.085432517,2.069986634,..,..,..
Early-demographic dividend,EAR,0.15,78.35,1.403789566,1.482692741,1.497034426,1.539112639,1.561888182,1.554660866,1.60442101,1.616737692,1.62888308,1.679527099,1.712683475,1.704119195,1.706719271,1.766189603,1.82596423,1.859521307,1.931014576,1.976617269,2.0801922,2.129049547,2.120265795,2.201766916,2.296320338,2.211199457,2.295599935,..,..,..
East Asia & Pacific,EAS,30.01,31.14,2.585508311,2.662724342,2.758900808,2.878769037,3.005805863,3.157809144,3.269616144,3.288592755,3.084187728,3.117246995,3.202506771,3.238781216,3.428443775,3.766955926,4.124040901,4.402045568,4.674995214,4.92257214,5.158881614,5.309028481,5.705764095,6.194419779,6.311753964,6.335395945,6.29865701,..,..,..
East Asia & Pacific (excluding high income),EAP,13.4,89.1,1.787564628,1.872291766,1.950512293,2.068857693,2.166580616,2.331567002,2.421665573,2.425669796,2.260979761,2.255395859,2.314714713,2.372122397,2.564652904,2.946380756,3.325951746,3.665266934,3.96932251,4.224755388,4.506350811,4.730109785,5.110046852,5.646130738,5.777982902,5.795473671,5.78066541,..,..,..
East Asia & Pacific (IDA & IBRD),TEA,3.45,8.5,1.783982636,1.868541895,1.946646922,2.064811309,2.162380941,2.327052111,2.416945527,2.420881519,2.256453961,2.248043414,2.305581853,2.362653522,2.55964116,2.945749798,3.32961848,3.671834577,3.979321364,4.244903795,4.526607603,4.753589615,5.140665449,5.693076993,5.8261122,5.850442873,5.83316722,..,..,..
Ecuador,ECU,15.19,38.55,1.646869557,1.577081423,2.081205403,2.210338829,1.219333417,1.996554109,2.070547565,1.539679646,1.84648038,1.733727698,1.640605971,1.798584661,1.908671472,2.029189439,2.150041892,2.203366408,2.066177292,2.244788111,2.344230258,2.455104271,2.441361756,2.543911176,2.473495016,2.617689044,2.761702175,..,..,..
"Egypt, Arab Rep.",EGY,59.22,24.48,1.322777217,1.339789275,1.353604755,1.520286484,1.365097016,1.502382335,1.571310296,1.635681662,1.814286717,1.827177043,2.021660576,1.761296175,1.752215942,1.999994134,2.001962275,2.177805381,2.28491226,2.377408257,2.453080477,2.50693511,2.41019138,2.528167325,2.471928185,2.376329652,2.198980246,..,..,..
El Salvador,SLV,9.02,38.42,0.478002407,0.595487001,0.614524369,0.693340336,0.828637795,0.895981815,0.805561075,0.955842385,1.005795242,0.978254947,0.978678941,1.007096558,1.016707229,1.097360896,1.060848307,1.070486275,1.13040764,1.14709126,1.071239371,1.049801084,1.047522915,1.073590082,1.070997514,0.996713369,1.000644623,..,..,..
Equatorial Guinea,GNQ,51.4,59.51,0.154636567,0.324569247,0.346438961,0.210384395,0.067748491,0.254213453,0.216941254,0.531902041,0.291199687,0.789420244,0.740177399,4.837655253,7.472589574,8.663189901,7.199253053,6.222090617,6.003530598,5.78352809,5.18537847,5.08234968,4.919642857,6.162746281,4.925379817,4.764156915,4.733816529,..,..,..
Ethiopia,ETH,9.02,38.42,0.06276065,0.05991315,0.057439133,0.056580884,0.040420199,0.044725848,0.048351836,0.050034792,0.051272705,0.048844127,0.053348338,0.063550673,0.064136044,0.068745056,0.070957323,0.06671871,0.069804932,0.074245057,0.079084048,0.077619139,0.07509386,0.085803968,0.092622864,0.112072453,0.119124015,..,..,..
European Union,EUU,13.28,16.4,8.578956365,8.586203578,8.313844489,8.170089655,8.039079574,8.152155957,8.362705942,8.156140025,8.156760772,7.991338656,8.013426014,8.172648651,8.103745058,8.222474481,8.20809822,8.142762854,8.176670916,8.008156136,7.802386254,7.155647741,7.354520513,7.07937396,6.917691494,6.753895169,6.379608619,..,..,..
Faroe Islands,FRO,41.43,44.5,14.94722024,14.06313083,13.78015329,12.50113636,12.44797838,12.4251086,13.05718876,12.76484833,13.38321168,13.43767177,14.58792162,16.04881539,15.1995227,15.28744737,15.53845834,14.96114735,14.02135047,14.229607,13.00864185,11.86633551,12.99122554,11.6932398,12.13140591,13.91665128,12.23784857,..,..,..
Fiji,FJI,52.3,13.25,1.117269718,0.912420986,1.004750642,0.99564121,0.977014812,0.983543478,1.047078559,0.99900613,0.96220863,0.973023978,1.039677129,1.297067861,1.092424705,1.284259173,1.653469037,1.334157118,1.471389672,1.38806342,1.060957621,0.929697981,1.419979069,1.25604496,1.213104227,1.30887617,1.320574708,..,..,..
Finland,FIN,5.35,0.06,10.37716896,10.71047721,9.415521088,9.948375064,11.24602792,10.32014335,11.95863616,11.66057821,11.05828449,10.7295164,10.12847414,10.9967421,11.86067583,13.26109694,12.83267498,10.41643805,12.57063845,12.09848186,10.63715919,9.955194272,11.57528165,10.54447474,9.075433356,8.681780123,8.660721243,..,..,..
Fragile and conflict affected situations,FCS,37.58,23.46,0.732926542,0.739504542,0.758010448,0.765686573,0.807647301,0.795648322,0.765731053,0.758567107,0.776991181,0.773507494,0.758345411,0.782254133,0.743101064,0.792787006,0.85075299,0.836936577,0.790995841,0.712353785,0.792740323,0.811890651,0.833550528,0.817418849,0.833300418,0.870957192,0.877975707,..,..,..
France,FRA,64.1,51.35,6.420670907,6.671688937,6.21725913,6.089252963,5.699231317,5.864118192,6.280953818,5.862812186,6.271267156,6.09815814,5.946665658,6.153060499,6.068664472,6.115998304,6.120078373,6.099598372,5.90626685,5.76638499,5.690501327,5.438356727,5.428980444,5.077911413,5.07506381,5.062180938,4.572088353,..,..,..
French Polynesia,PYF,16,61.44,2.19973787,2.141939252,2.018702562,2.041671266,2.079790527,1.993712708,1.973276542,2.015996889,1.95893614,2.12509444,2.395641032,2.811731939,2.888627217,3.09888571,3.029435011,3.222648557,3.200048869,3.137988595,3.204700983,3.1895241,3.203935479,3.084790045,2.996190694,3.003012489,2.915134817,..,..,..
Gabon,GAB,14.4,90.22,4.725217704,4.637060261,4.909159769,4.838359328,4.146172106,4.257369927,4.28587048,4.198840259,4.251779335,4.003618502,3.812587217,3.8027877,3.532692526,3.495415414,3.435279888,3.483729188,2.888232916,2.765283613,2.716100054,2.678457404,2.933224404,2.929968222,2.905518332,2.90571962,2.768265721,..,..,..
"Gambia, The",GMB,49.26,2.33,0.191987854,0.189240995,0.183402775,0.185466868,0.180374006,0.185719123,0.180556721,0.175521575,0.183200912,0.19325509,0.199448144,0.199153086,0.220912206,0.213922821,0.209756659,0.203129198,0.20658864,0.228723501,0.230836248,0.232603869,0.255713888,0.25617469,0.252317681,0.232722215,0.267684889,..,..,..
Ghana,GHA,6.5,58.12,0.260957011,0.261623547,0.257527134,0.286044063,0.303371967,0.314836872,0.32646561,0.36151854,0.354979299,0.354443096,0.332065264,0.356285127,0.372506201,0.373214083,0.350161075,0.324620095,0.423190166,0.432928115,0.392218773,0.322460195,0.406162808,0.391342522,0.4615626,0.554930149,0.536533378,..,..,..
Gibraltar,GIB,18.4,72.2,4.9037512,6.778652609,7.988290956,8.046281606,9.445024252,9.122798288,9.293627806,9.588808263,10.0005844,10.29424672,10.7022771,10.98674061,11.04378012,11.21371375,12.07157637,12.45762818,12.94395591,12.74595509,12.99560064,14.01996602,14.03202868,13.50220027,13.74184338,14.52448937,15.51348493,..,..,..
Greece,GRC,53,74,7.284521642,7.176639815,7.260257729,7.238006236,7.410792356,7.458879643,7.563654136,7.852506913,8.185367878,8.050452819,8.47843382,8.636014274,8.591970187,8.760745127,8.867967195,8.980839448,8.827796219,8.892293442,8.662824281,8.277892345,7.540183868,7.189762915,7.247007359,6.33661459,6.180337268,..,..,..
Greenland,GRL,14.05,87.14,9.958938849,9.844738739,8.686745027,9.034637681,9.051873874,9.003207885,9.249499106,9.298464286,9.412620321,9.608716578,9.461120996,9.566086957,9.522319772,9.366951467,10.24499657,10.69152542,11.04479163,11.28207939,11.71815083,10.2217389,11.66377295,12.44034101,10.00501672,9.803250536,8.989181988,..,..,..
Grenada,GRD,47.29,19.05,1.104483658,1.140543679,1.207267639,1.230975027,1.438690207,1.499645903,1.527977301,1.668103875,1.737417209,1.915882968,1.876460111,1.908226885,2.011283056,2.113338217,2.000389651,2.101555139,2.237296507,2.301034889,2.434552102,2.426008668,2.487241705,2.408022841,2.572577052,2.873797317,2.275498308,..,..,..
Guatemala,GTM,28.37,77.13,0.549031916,0.532846371,0.619819718,0.569308416,0.67231177,0.688410969,0.62479024,0.697858139,0.786197352,0.784138563,0.851067438,0.891154224,0.90887707,0.866258954,0.908087138,0.959869359,0.944052806,0.921548718,0.816060283,0.827854974,0.797292859,0.791834915,0.784016181,0.87418049,1.150977994,..,..,..
Guinea,GIN,6.09,106.49,0.166320537,0.161077346,0.156796627,0.152040084,0.165747451,0.163988773,0.167736278,0.170200413,0.176810242,0.182634526,0.186502517,0.191706204,0.197449478,0.202062483,0.204790633,0.188658482,0.191487708,0.19503142,0.212067121,0.214326136,0.2412015,0.251884294,0.22883261,0.199296674,0.207492621,..,..,..
Guinea-Bissau,GNB,35.44,51.3,0.170258229,0.16971041,0.169065676,0.168432134,0.164654916,0.161240395,0.158188532,0.170959044,0.143634341,0.159200488,0.117983091,0.11861584,0.119065529,0.147101654,0.149358127,0.154026758,0.153151941,0.159770201,0.153530325,0.154659665,0.153196262,0.153925624,0.154457589,0.152655821,0.157241167,..,..,..
Guyana,GUY,33.2,44.3,1.524403714,1.497762294,1.396935576,1.387016844,1.827837572,1.921910281,1.992670579,2.092645725,2.186792831,2.223665988,2.137011633,2.12046186,2.102022386,2.082588843,2.16609282,1.914204217,1.721961417,2.088790951,2.088229619,2.099803807,2.303675813,2.379070885,2.648880414,2.554048974,2.632347952,..,..,..
Haiti,HTI,53.21,6.15,0.139971058,0.137701251,0.123110746,0.088136104,0.039178826,0.115358616,0.129820742,0.168614307,0.149193502,0.15838386,0.159990525,0.1805538,0.206703021,0.193224637,0.217948811,0.224056081,0.22447544,0.25017388,0.247110854,0.230376834,0.212694146,0.218681438,0.224883835,0.23059851,0.270538586,..,..,..
Heavily indebted poor countries (HIPC),HPC,31.47,35.12,0.169466571,0.157572139,0.158455875,0.159043849,0.159507752,0.170772953,0.17389876,0.174699811,0.165523206,0.161359232,0.162257814,0.163942515,0.170391156,0.175683411,0.184718896,0.183977821,0.192717356,0.200496028,0.203015919,0.20326954,0.221203409,0.232659952,0.240601121,0.254597359,0.26534215,..,..,..
High income,HIC,41.54,12.29,11.46171657,11.51040342,11.5673615,11.64489793,11.71388408,11.69443914,11.93161341,11.93895399,11.86150167,11.95687571,12.27489081,12.15685808,12.15333334,12.25279694,12.3770201,12.30537727,12.23347214,12.20527872,11.95578819,11.24474243,11.56298143,11.31088372,11.13486896,11.05307492,10.98166699,..,..,..
Honduras,HND,18,76.5,0.523188172,0.529203516,0.586263176,0.527757346,0.600971613,0.679567585,0.674925343,0.689742808,0.750926433,0.745833911,0.771138223,0.853598376,0.887475982,0.962390428,1.022605017,1.024491994,0.929221554,1.13892448,1.101591737,0.979841745,0.973269197,1.072227358,1.05625722,1.047014219,1.07522179,..,..,..
"Hong Kong SAR, China",HKG,31.57,35.52,4.791623806,4.979010779,5.705486596,5.925240637,5.183281473,5.112034242,4.525415896,4.731448847,5.975399392,6.465887081,6.067468267,5.65317561,5.877226465,6.441820883,6.148515958,6.439263195,6.133325021,6.321536226,6.320723648,6.044701985,5.791126534,6.193079501,6.069467755,6.261577878,6.382829308,..,..,..
Hungary,HUN,51.1,71.3,6.713650623,6.418858426,5.824428958,5.978002173,5.692996711,5.844711547,6.019061436,5.916811704,5.762720948,5.743606612,5.467296695,5.592875675,5.518941473,5.82981044,5.684910755,5.751848927,5.698187039,5.572459521,5.463501182,4.840111448,5.022311649,4.797900003,4.494128944,4.259659831,4.265574976,..,..,..
IBRD only,IBD,1.17,36.48,2.597214197,2.652517625,2.698364831,2.67571697,2.615617748,2.681374474,2.718941197,2.680433054,2.607555217,2.61889136,2.639154885,2.661124886,2.738289435,2.963583055,3.164713275,3.343350356,3.53146464,3.667385325,3.860075908,3.915007142,4.123563114,4.411304311,4.524741598,4.503035252,4.510720762,..,..,..
Iceland,ISL,1.3,173,7.842665191,6.856146503,6.967183412,7.49459854,7.553975062,7.280037238,8.222645733,7.763336874,7.667265104,7.456127132,7.693782116,7.373427894,7.550227286,7.485457013,7.683682902,7.513584557,7.568614994,7.414833454,6.677481144,6.447492771,6.168528586,5.896828979,5.613991818,5.866946294,6.059657407,..,..,..
IDA & IBRD total,IBT,29.3,48,2.186257696,2.226921308,2.262269848,2.237173568,2.179594435,2.224942843,2.253932417,2.217063799,2.156632984,2.162202356,2.179903703,2.193942815,2.2496054,2.424325752,2.577694387,2.708278452,2.848555043,2.950578364,3.090863734,3.117201737,3.272366264,3.486023849,3.561338844,3.536686563,3.530939698,..,..,..
IDA blend,IDB,42.54,74.46,0.935139054,0.931934944,0.984743753,0.964680211,0.900011186,0.854296548,0.892172313,0.863254024,0.872048848,0.876105221,0.963794692,0.974056011,0.998706122,1.0036976,1.021554388,0.999547492,0.994749566,1.007746111,0.988996369,0.890379578,0.907667614,0.939870757,0.937521858,0.930803298,0.880445467,..,..,..
IDA only,IDX,17.58,102.36,0.257791994,0.258363774,0.256797183,0.246162734,0.238832462,0.241439007,0.247993958,0.247694832,0.253308418,0.256895405,0.25660826,0.261526248,0.249831187,0.275409887,0.283472749,0.281286735,0.292213418,0.313346462,0.318831072,0.315625568,0.332241304,0.335718006,0.325676172,0.336243062,0.3484429,..,..,..
IDA total,IDA,56.53,24.08,0.49059047,0.490092044,0.503580033,0.489471967,0.462351653,0.448283905,0.465183007,0.455013785,0.461513651,0.4650204,0.494094098,0.500429866,0.500567608,0.518765111,0.529728228,0.520640129,0.526089268,0.544342397,0.541695835,0.506680456,0.523640485,0.53690749,0.529591921,0.534505356,0.525893956,..,..,..
India,IND,33.53,35.31,0.7115628,0.741158963,0.771602203,0.783172984,0.811640203,0.844952257,0.901348777,0.92007238,0.921501664,0.962521771,0.979870442,0.97169808,0.967381128,0.992391683,1.025027608,1.068563218,1.121981504,1.19320986,1.310097833,1.431844254,1.397008906,1.47668635,1.598098637,1.591437853,1.730000432,..,..,..
Indonesia,IDN,29.18,27.3,0.824341653,0.973538,1.078874707,1.145229554,1.141628552,1.14207743,1.266992998,1.373878882,1.041245921,1.159992484,1.245241613,1.374818345,1.410233797,1.436404464,1.509898209,1.508480596,1.50157677,1.611855395,1.763895139,1.865165403,1.767907879,2.456844744,2.559750233,1.945094474,1.819363319,..,..,..
"Iran, Islamic Rep.",IRN,6.18,10.47,3.743163403,3.963387475,3.921487709,4.021184357,4.440852037,4.505806723,4.482709433,4.294228785,4.827939521,5.876485145,5.628712148,5.938288818,5.909686786,6.080819732,6.42136251,6.657136594,7.150837088,7.209721709,7.434674547,7.522002539,7.684728662,7.802934624,8.001696245,8.003808763,8.283020787,..,..,..
Iraq,IRQ,32.49,13.07,2.730149885,2.543826227,3.202483538,3.33275666,3.640010259,3.679087549,3.334021287,3.175784641,3.26142842,3.159516178,3.074219493,3.519022191,3.498892732,3.55544505,4.335058404,4.203243314,3.565996058,2.189316732,3.19974579,3.497152936,3.647128775,4.235645492,4.659523902,4.884622664,4.811839686,..,..,..
Ireland,IRL,47.08,9.31,8.883722816,8.884672638,8.721211602,8.74130132,9.100127396,9.135896261,9.596172382,9.911617342,10.3845933,10.69399161,10.83474264,11.38823116,11.04125081,10.6811767,10.75163663,10.4661517,10.0993731,10.14752888,9.577641293,8.889010942,8.783613934,7.785414637,7.759472689,7.579949216,7.378117809,..,..,..
Israel,ISR,49.37,6.09,7.788833906,7.426619721,8.352571345,8.567717924,8.964758844,9.215445446,9.328559382,9.575293523,9.562081728,9.092962612,9.581779456,9.876810219,9.103871689,9.400877468,8.667993097,8.218088772,8.856488368,8.78433448,9.340093039,8.612472881,9.035223254,8.901888279,9.547967764,8.321785471,7.863181348,..,..,..
Italy,ITA,22.12,113.33,7.361704582,7.468379928,7.404168932,7.248012993,7.16667249,7.573033273,7.48906561,7.566965198,7.734648761,7.765755082,7.912673166,7.904432663,7.932323042,8.17175128,8.216487201,8.166090128,8.072145596,7.917347216,7.60176497,6.795651486,6.83837457,6.702557614,6.205413858,5.732941879,5.270866786,..,..,..
Jamaica,JAM,18.55,47.31,3.106957969,3.173769248,3.129507147,3.216457287,3.261275447,3.617228782,3.787239856,3.916736991,3.721250211,3.786851555,3.879738293,3.965603802,3.799716633,3.932630319,3.910532081,3.825089911,4.164812687,3.47744866,3.658953981,2.760631465,2.590268386,2.777310635,2.626668783,2.837874022,2.59321537,..,..,..
Japan,JPN,14,33.48,8.873292835,8.871630055,9.046579237,8.912179795,9.389452085,9.434444176,9.579507892,9.525758078,9.160044153,9.448842945,9.622351624,9.464308709,9.573130135,9.725282059,9.909203497,9.698882518,9.632048618,9.782963899,9.449533972,8.620816388,9.148316038,9.317426666,9.63862829,9.780815065,9.538706103,..,..,..
Jordan,JOR,3.09,101.41,2.921791718,2.610469935,3.091104577,2.888482947,3.101467645,2.964614827,3.008163901,2.983826018,2.95121382,2.905141459,3.03886889,3.081321549,3.19367817,3.237042722,3.475823105,3.68553936,3.559335058,3.557940164,3.289654786,3.209444026,2.948961557,2.860523571,3.058367062,2.898831801,3.002514727,..,..,..
Kenya,KEN,12.34,7.55,0.248827871,0.200186951,0.22195351,0.246468467,0.246966852,0.276233966,0.331424476,0.2854661,0.337139584,0.332422419,0.331249189,0.289874858,0.239910545,0.197903469,0.217354469,0.237527091,0.258407753,0.258132923,0.261618018,0.306941208,0.294423102,0.316754325,0.286745421,0.297438082,0.310415314,..,..,..
Kiribati,KIR,35.54,14.31,0.303844667,0.2985346,0.34331073,0.387432481,0.382621852,0.37740898,0.418251866,0.32012621,0.359730227,0.353590627,0.34755823,0.298970393,0.461822928,0.453760054,0.486006494,0.675212564,0.739157649,0.533043993,0.558766761,0.401091799,0.607284807,0.595656245,0.584722313,0.574367715,0.564368357,..,..,..
"Korea, Rep.",KOR,20.1,57.3,5.760374252,6.039462229,6.498142885,7.284858219,7.706677234,8.311071381,8.869490025,9.35798162,7.882070871,8.577710247,9.52093176,9.503744234,9.77299975,9.734649494,10.03018386,9.607269847,9.716605676,10.18156704,10.34742286,10.32010949,11.43631663,11.80296873,11.63282456,11.74920084,11.57034541,..,..,..
Lebanon,LBN,22.17,166.3,3.038857336,3.0801893,3.67107782,4.027456053,4.270260603,4.47647124,4.480222471,5.059411124,5.346320478,5.224057116,4.712723692,4.81313948,4.542585422,4.911836506,4.348269742,4.065397963,3.563651398,3.294180595,4.190554377,4.989669044,4.622282052,4.455511197,4.603511835,4.279937348,4.295732552,..,..,..
Lesotho,LSO,41.19,174.46,0.919071685,0.935529578,0.952426968,0.961843419,0.967419384,0.970172463,0.972519587,0.978297144,0.985183187,0.986835642,0.99097554,0.995518981,1.002380261,1.007513697,1.02591833,1.032643548,1.037234275,1.047034057,1.063467221,1.098714893,1.115976518,1.129856804,1.151021471,1.149963563,1.150111032,..,..,..
Liberia,LBR,12.06,86.2,0.225555876,0.135269846,0.139593094,0.15766145,0.15484988,0.157398521,0.153964601,0.147708111,0.146618938,0.143487445,0.1461958,0.164278273,0.159233697,0.167097261,0.193947011,0.222635631,0.221594757,0.189982043,0.154168463,0.13565347,0.200619788,0.218929838,0.245544549,0.223290253,0.212967664,..,..,..
Libya,LBY,13.27,2.06,8.290020355,9.432394214,8.011256709,8.190292325,9.090075742,9.299399571,8.768671796,8.789015195,8.752660859,8.460120781,8.796827186,8.84099908,8.653499448,8.754906737,8.827526456,8.995490522,9.057399937,8.367869151,9.253709435,9.472052766,10.04374986,6.410366124,8.499773485,9.081136287,9.186845393,..,..,..
Luxembourg,LUX,33.4,73.1,26.19765877,27.43143411,26.95725378,27.14211963,25.29153813,20.35302784,20.37000905,18.92729765,17.32046621,17.85476973,18.88551226,19.93273314,21.1057455,21.93071098,24.5990264,24.82464668,24.01285765,22.95728271,22.38547222,20.87712517,21.6351358,21.10296963,20.08421949,18.49831971,17.36212137,..,..,..
"Macao SAR, China",MAC,7.2,134.28,3.006655327,3.088968917,2.984516869,3.188308199,3.366623452,3.194598715,3.577860949,3.707508641,3.80267033,3.626668641,3.812838948,3.85047514,3.381937019,3.331122446,3.640142284,3.791936323,3.285522582,3.04962854,2.602236229,3.944039078,2.622363675,2.636261714,2.333713164,2.05052089,2.17984276,..,..,..
Madagascar,MDG,9.24,147.08,0.081884908,0.086587095,0.081678771,0.081293065,0.097101582,0.093883298,0.098119443,0.115010231,0.11737339,0.12549245,0.118846962,0.107117169,0.073711326,0.098470636,0.101546442,0.094991068,0.089148788,0.093403805,0.094441924,0.086107763,0.09257807,0.107595267,0.121103401,0.135748886,0.130421321,..,..,..
Malawi,MWI,25.1,57.3,0.079265038,0.082535668,0.081784393,0.091338055,0.093574793,0.092886147,0.090316722,0.092894801,0.087352393,0.085330371,0.076394678,0.073993001,0.070814422,0.074310875,0.073478637,0.067211075,0.067992046,0.06411502,0.07400173,0.064295725,0.075433298,0.075556876,0.06811283,0.073883522,0.07476291,..,..,..
Malaysia,MYS,12,77,3.137365778,3.701740753,3.960409776,4.704941075,4.703626236,5.91014797,5.963602516,5.788042285,5.163673724,4.763996976,5.422937194,5.722640626,5.526834521,6.410086386,6.507753343,6.800116472,6.414691515,6.941255761,7.525777755,7.20424991,7.771554746,7.697015882,7.497558969,7.961513999,8.032991579,..,..,..
Maldives,MDV,14.4,121.03,0.790591743,0.678475771,0.987269231,0.818256198,0.808236735,0.977866667,1.105698473,1.250113636,1.109571956,1.506089286,1.577066434,1.582335616,2.000181818,1.664625,2.139083333,1.873482866,2.279486486,2.238025788,2.329861878,2.454852778,2.547915531,2.616506631,2.885976623,2.780575064,3.328648379,..,..,..
Mali,MLI,52.13,21,0.049816377,0.050433088,0.050033135,0.049937884,0.049398373,0.04887068,0.049479598,0.051846562,0.0734754,0.074621124,0.074893437,0.073383783,0.072779635,0.070254145,0.070724633,0.070195456,0.071249296,0.073738963,0.075735439,0.055231208,0.063974498,0.067247651,0.062083931,0.062311648,0.083228663,..,..,..
Malta,MLT,38.42,9.1,6.098379309,5.654020256,5.506215691,7.140274381,6.457415614,5.625559392,5.897624406,6.581212724,5.567784535,6.055245654,5.292462963,6.325824114,5.806537886,6.476880542,6.415248662,6.683221324,6.351303206,6.698844917,6.252313871,5.814186003,6.174949579,6.104795468,6.390618779,5.525955774,5.491524789,..,..,..
Marshall Islands,MHL,18.28,66.07,1.007886169,1.059061372,1.113957633,1.245584239,1.305111221,1.293854749,1.284138441,1.276909386,1.341800674,1.267420649,1.476389501,1.545982408,1.617029027,1.618332182,1.690056458,1.620228604,1.760340259,1.899016054,1.896070321,1.962461774,1.958531235,1.954169997,1.949680041,1.944879056,1.941018564,..,..,..
Mauritania,MRT,25.15,51.35,0.446151004,0.441404238,0.452072316,0.446749714,0.505926631,0.461708798,0.465020471,0.452514932,0.440174124,0.436613546,0.433106133,0.455955774,0.469665477,0.469982419,0.504949844,0.507171194,0.49984056,0.556802755,0.568203288,0.605538678,0.61971003,0.644099587,0.693144214,0.676497971,0.666822428,..,..,..
Mauritius,MUS,37.31,126.58,1.381911171,1.421894183,1.575762997,1.617341034,1.459753641,1.630203206,1.720327056,1.740436164,1.870755528,2.065534045,2.267789393,2.39401331,2.395715333,2.523504784,2.53175545,2.683999401,2.94193012,2.97588958,3.029991456,2.97492202,3.132082534,3.129998786,3.15928885,3.233909584,3.353110472,..,..,..
Mexico,MEX,44.27,26.1,3.730500739,3.812485098,3.767921409,3.746878153,3.820068506,3.538889585,3.620305649,3.801014279,3.937272843,3.904180812,3.916478182,4.006881616,3.970934988,4.16704652,4.124551403,4.299365235,4.353173578,4.296635487,4.339644436,4.120600766,3.957657664,4.067755192,4.107686314,4.001602493,3.866241113,..,..,..
Middle East & North Africa,MEA,1.59,30.04,3.569396607,3.806986672,3.980344783,4.238926809,4.33943986,4.136264811,4.052912261,3.85822293,4.156529511,4.351312811,4.644901115,4.631625284,4.603452057,4.816033373,5.108815409,5.254239767,5.450505016,5.297569033,5.609736352,5.744609287,5.847629161,5.793991934,6.099279028,5.921664143,6.159461294,..,..,..
Middle East & North Africa (excluding high income),MNA,17.17,62.43,2.417082947,2.503572067,2.524237036,2.612288524,2.726657738,2.786789203,2.762982784,2.68223265,2.956416673,3.141157567,3.105059766,3.143044411,3.100289482,3.262256187,3.401536629,3.550132417,3.603603965,3.556695388,3.735083468,3.807163846,3.818795951,3.822477607,3.926381879,3.914188367,3.927253364,..,..,..
Middle East & North Africa (IDA & IBRD),TMN,14.02,60.58,2.436891234,2.524539494,2.545873998,2.635233231,2.751217362,2.812542464,2.789188845,2.708353605,2.984813184,3.171555245,3.13484538,3.171568047,3.129387227,3.293019934,3.432213544,3.579956619,3.636029456,3.588850456,3.770654534,3.844012373,3.856528774,3.86025027,3.966159669,3.953796939,3.967544488,..,..,..
Middle income,MIC,46.46,56.12,2.26085686,2.312430807,2.358100941,2.334311361,2.279860534,2.328028231,2.357962743,2.321056073,2.263645688,2.273059511,2.300801413,2.320060406,2.385890243,2.579379723,2.750865382,2.898290869,3.053115758,3.169724091,3.330463663,3.369398408,3.542179767,3.782105923,3.875846018,3.852003465,3.854042913,..,..,..
Morocco,MAR,24.41,46.42,0.946260352,0.985754945,1.009610649,1.075470386,1.111497643,1.121828282,1.135997232,1.14506851,1.1371173,1.162671642,1.175234919,1.292416974,1.296207204,1.25858331,1.435121375,1.499668721,1.536323802,1.609794004,1.674221754,1.640583713,1.726598065,1.755558226,1.881915344,1.746728972,1.744379974,..,..,..
Mozambique,MOZ,14.34,17.29,0.077228269,0.07527187,0.071405124,0.073655692,0.069884138,0.070737906,0.06409485,0.067405864,0.066121115,0.067564222,0.074688918,0.085023271,0.082959215,0.097270381,0.094596362,0.08710476,0.091898522,0.101969512,0.099191579,0.107559226,0.112940682,0.129247057,0.121535416,0.152038112,0.309666607,..,..,..
Myanmar,MMR,8.3,13.17,0.105245303,0.101489783,0.117188667,0.126577756,0.146208756,0.160969506,0.165710082,0.169005122,0.179679997,0.196960766,0.218848376,0.187093466,0.195328681,0.206738413,0.258661081,0.239234646,0.263052109,0.261834894,0.198099033,0.205437515,0.249531401,0.282824446,0.217129435,0.249963458,0.416600362,..,..,..
Namibia,NAM,48.1,17.07,0.02851292,0.720520693,0.760667256,0.890902657,0.985950241,0.985777103,1.025004556,1.021510022,1.053173428,0.896006656,0.864978252,1.043056564,0.897058171,0.943269059,0.976417311,1.136804718,1.134491136,1.135406014,1.579001365,1.436229083,1.427537652,1.277711305,1.495026357,1.134995165,1.583728667,..,..,..
Nauru,NRU,46.04,14.33,13.61559463,13.32884328,12.67927494,11.69636794,11.15380716,10.6662989,10.23382837,10.21042164,9.8477223,9.127339705,8.398824935,8.024868199,7.644892286,6.537836767,6.526846633,6.16302521,4.356400356,4.36764268,4.37981487,4.022437176,4.389426434,4.010838222,3.924214418,4.066537289,4.021851008,..,..,..
Nepal,NPL,9.27,159.57,0.033835259,0.049922125,0.067317505,0.072180866,0.081363417,0.095118175,0.113508788,0.124308954,0.098508398,0.138145835,0.129282276,0.135225857,0.106876799,0.113901965,0.105477444,0.120277398,0.098811563,0.099736268,0.129223796,0.162087331,0.187128275,0.202491061,0.211798007,0.237169787,0.283538526,..,..,..
Netherlands,NLD,2.02,45.25,10.59447501,10.95929395,10.68378816,10.77817839,10.74723845,11.55535084,11.96659804,11.42242905,11.36038153,10.98308161,10.89472628,11.01778766,11.24924012,11.22973834,11.352269,11.12017757,10.98971528,10.78586295,10.76402402,10.42752306,11.01707086,10.4335386,10.16475883,10.31006279,9.920138075,..,..,..
New Caledonia,NCL,25.44,28.12,9.269474953,10.07911634,8.810638546,9.957760602,10.45049134,10.70872374,11.11808325,9.084754093,8.824565591,9.832931831,10.47321202,8.689813366,10.86077024,12.17444,11.0975,12.22333333,11.57835745,12.37227311,11.84956198,12.13851837,14.169288,14.36482283,14.01671815,16.13201141,16.00891791,..,..,..
New Zealand,NZL,40.25,3.45,7.071237612,6.891034877,7.10204151,7.471145513,7.370467403,7.386109054,7.674956324,8.204273662,7.871314024,8.510851608,8.549394199,8.87715449,8.408514119,8.46272795,8.453612477,8.258489562,7.992808632,7.963774563,8.029041035,7.527296054,7.305005861,7.185948221,7.747276831,7.531957408,7.686575825,..,..,..
Nicaragua,NIC,15.31,32.35,0.614917368,0.473434792,0.552851041,0.520238197,0.562129083,0.60265581,0.611585441,0.65653966,0.702581882,0.732709519,0.748457268,0.77714591,0.78066022,0.841729221,0.833581276,0.803023352,0.81949231,0.834057151,0.79049017,0.793378229,0.790571277,0.840380212,0.786172383,0.765378513,0.808520856,..,..,..
Niger,NER,5.5,55.1,0.091527858,0.087320331,0.081923297,0.088332316,0.084545131,0.085510027,0.091862048,0.08933306,0.090662867,0.087087586,0.061369828,0.055758948,0.05738136,0.059972884,0.062015179,0.052507081,0.049041881,0.049248865,0.053216382,0.061217486,0.0714398,0.077789764,0.105264016,0.105275363,0.111073516,..,..,..
Nigeria,NGA,26.18,31.06,0.411426136,0.432566935,0.465118509,0.439240366,0.334101575,0.331828274,0.358212759,0.372860927,0.325375821,0.337607058,0.621626466,0.683342208,0.728060755,0.769980197,0.77037715,0.763411354,0.693421339,0.649213947,0.639510536,0.49698548,0.57711138,0.587523023,0.588789917,0.571126416,0.545622113,..,..,..
North America,NAC,59.2,18.03,18.95348572,18.66268843,18.7692773,18.95630105,18.99345882,18.9423261,19.16269229,19.37377962,19.29713283,19.44626241,19.90001075,19.37358606,19.31107882,19.35503182,19.41999239,19.35915719,18.85642497,18.98389784,18.30378575,17.03768107,17.26991958,16.83828478,16.16155105,16.15358671,16.35371951,..,..,..
Norway,NOR,33.3,36.18,7.429148081,7.526341168,7.467626804,8.151268173,7.818332417,7.67101664,7.615492854,8.195307227,8.52482024,9.117546218,8.834015703,9.284992238,8.378534776,9.90643602,9.287466436,9.179216926,9.495835691,9.57484966,11.67958325,11.46182886,12.2934545,9.124767216,9.940980235,11.45011884,9.270945132,..,..,..
OECD members,OED,38.33,68.48,10.56121714,10.54820488,10.52461897,10.53716741,10.58510657,10.63384581,10.86715025,10.90326651,10.8173267,10.86753497,11.07616821,10.95481533,10.93307889,11.0255893,11.07141834,11.01011988,10.91371967,10.92318014,10.64771383,9.931450145,10.17234335,9.976684521,9.765609587,9.693407668,9.534347145,..,..,..
Oman,OMN,13.45,100.35,6.283128973,6.215677608,6.090474503,6.494772722,7.124305771,7.211617111,6.753074889,6.883245999,7.353948154,9.183282496,9.654208063,8.839968154,10.91168473,13.57951707,11.44760509,11.9036965,15.3324576,16.41001787,15.47867535,14.25745055,15.59053119,16.68986874,17.07526401,16.53740003,15.44316719,..,..,..
Other small states,OSS,42.01,21.26,4.060355284,4.411935054,5.055576017,5.22812573,5.060933932,4.988980985,5.078342363,5.427381212,5.106829511,4.838997475,5.025581206,5.232223345,5.244311076,5.423921732,5.426114702,5.749137186,6.119634008,6.56615537,6.628053589,6.308844241,6.56368835,6.784162832,7.007855588,6.690196009,7.523087491,..,..,..
Pacific island small states,PSS,6.09,1.2,1.030429213,0.941897166,0.957118625,0.952726752,0.940576419,0.941662753,0.963332317,0.948413961,0.924992274,0.9328713,0.961452403,1.084008112,0.990566879,1.067249342,1.190112601,1.057992942,1.106117067,1.095111809,0.95441671,0.928112242,1.096408647,1.030073173,1.004216091,1.039494445,1.064149686,..,..,..
Pakistan,PAK,21.1,174,0.636761224,0.6162974,0.639927766,0.668166038,0.708357907,0.6878173,0.74994837,0.73370119,0.73845596,0.741358828,0.768458119,0.764701583,0.788667608,0.804958723,0.872801659,0.887768063,0.929856974,0.991029936,0.972050346,0.950832112,0.946268168,0.929801105,0.918978434,0.904315983,0.896264105,..,..,..
Palau,PLW,36.5,10.11,15.55461294,15.16660204,14.76582358,14.36103292,13.96453648,13.60273576,13.26595444,13.15207195,12.86736126,12.81964087,13.00422425,13.03973408,12.73914376,12.84380711,12.77635831,13.07932282,13.19328403,12.94278187,12.5085525,12.07791761,12.36067416,12.28326618,12.18918008,12.27007648,12.34270409,..,..,..
Panama,PAN,39.57,32.54,1.120426919,1.286191914,1.648430252,1.499071737,1.616156946,1.08950079,1.653618797,1.978730464,2.042309108,1.908046488,1.910735965,2.268075635,1.864202282,1.917386218,1.775436063,2.053453497,2.173017817,2.084170019,2.097205617,2.402400133,2.515310074,2.723708675,2.680559818,2.792431187,2.254311363,..,..,..
Papua New Guinea,PNG,38,57.5,0.496521842,0.466768649,0.452763961,0.428891747,0.457355942,0.421074333,0.435883815,0.500086519,0.541264535,0.450400232,0.478428354,0.561326046,0.594870184,0.656442053,0.728458268,0.694526383,0.665926409,0.923399974,0.706689826,0.733141685,0.670128424,0.732961333,0.683475587,0.814742393,0.814648807,..,..,..
Paraguay,PRY,8.31,179.13,0.513446243,0.493636736,0.57080548,0.631364129,0.73793721,0.832630098,0.770186138,0.842320932,0.884810711,0.866486548,0.695683708,0.706728265,0.70762321,0.725821379,0.716846315,0.66120593,0.677573895,0.693306363,0.736175272,0.744430376,0.820810138,0.845408397,0.828337607,0.840506114,0.870219291,..,..,..
Peru,PER,0.2,32.3,0.965359974,0.910697008,0.898321665,1.018601094,0.986018289,0.993527578,0.997878285,1.106713726,1.1034579,1.148533257,1.169087226,1.03441455,1.022016493,0.979310067,1.169484073,1.344989408,1.247832089,1.518243277,1.432002781,1.782828044,1.96073385,1.667770946,1.82602434,1.869868254,1.993485949,..,..,..
Philippines,PHL,50.3,30.28,0.67417677,0.69172927,0.749172507,0.742420324,0.803087275,0.86933816,0.870068176,0.973904945,0.926989808,0.905991804,0.939934892,0.89187863,0.876902416,0.860220946,0.87467388,0.867379088,0.770906137,0.808236155,0.868950031,0.841111599,0.905495625,0.897333685,0.941558643,0.99642457,1.055456846,..,..,..
Poland,POL,24.28,54.22,9.66717214,9.455665483,9.246915317,9.18461204,8.664998584,8.918615723,9.210609908,9.043385427,8.417027479,8.166558532,7.822798329,7.877112224,7.712040984,7.911421984,7.97271581,7.927026686,8.362097463,8.244183742,8.258160054,7.800914342,8.313376825,8.328175875,7.879830064,7.946282506,7.517151585,..,..,..
Portugal,PRT,51.36,0.05,4.239198924,4.416863558,4.851017443,4.709295486,4.770042511,5.173429531,5.026484644,5.250035785,5.690597799,6.305207232,6.096403385,6.056037979,6.410086691,5.853135645,6.02313785,6.215165476,5.684705076,5.705207852,5.268402206,5.126323978,4.552752646,4.510827218,4.37605313,4.344029312,4.331554028,..,..,..
Sao Tome and Principe,STP,15.28,28.16,0.418559525,0.409917967,0.401217008,0.39265446,0.384527276,0.376982935,0.370056124,0.363603774,0.357305611,0.350816125,0.34393172,0.362500177,0.404944475,0.444868304,0.482598425,0.494808199,0.529354539,0.517109031,0.505299168,0.536698026,0.566490823,0.574250559,0.621562806,0.607752145,0.59433982,..,..,..
Saudi Arabia,SAU,17.43,31.02,11.38024918,15.87447958,16.43002278,17.57125341,16.81833217,12.55140044,13.52480459,11.08602602,10.445416,11.15870314,14.30027275,13.95135698,14.90013762,14.50905522,17.04060396,16.63381165,17.60654664,15.35597887,16.58299927,17.58961186,18.9053425,17.70230724,19.41950578,18.06835808,19.5292718,..,..,..
United Kingdom,GBR,51.36,0.05,9.710881678,9.870809033,9.660929998,9.454695828,9.448399895,9.274846236,9.480231059,9.042720853,9.094403914,9.047636069,9.199549233,9.233174987,8.904123108,9.053277839,8.989140127,8.982938536,8.89871022,8.617163681,8.424423983,7.574622131,7.857836486,7.079297626,7.355898277,7.145844359,6.49744049,..,..,..
United States,USA,39.91,77.02,19.32275118,19.05616319,19.13943728,19.34708291,19.36089205,19.27654526,19.49602474,19.69036318,19.5792362,19.72716951,20.17875051,19.63650507,19.61340408,19.56410453,19.65837118,19.59188523,19.09406652,19.21789784,18.46176387,17.15773779,17.44161513,16.97241709,16.30402162,16.31587885,16.49366613,..,..,..
Uruguay,URY,34.5,56.11,1.284044091,1.454131958,1.638893071,1.405345554,1.270206806,1.423678462,1.675421601,1.698406608,1.72760589,2.032224767,1.597638536,1.529798146,1.38844206,1.382717957,1.687830315,1.736680346,1.99585265,1.797408542,2.466682225,2.396863881,1.893043387,2.292941862,2.559619604,2.226235877,1.973150822,..,..,..
Vanuatu,VUT,17.42,168.18,0.450141168,0.437769436,0.401557558,0.390072209,0.379634366,0.392344043,0.490922637,0.481951325,0.453026202,0.465085886,0.455742099,0.464937398,0.434846048,0.423900806,0.287406377,0.28023117,0.222103674,0.450137075,0.423102867,0.52434517,0.512118327,0.545795073,0.459328848,0.42009228,0.594993239,..,..,..
"Venezuela, RB",VEN,10.3,66.5,6.150574395,5.677767974,5.095064708,5.850039149,5.981943678,6.009845251,5.421792935,5.797813976,7.099862305,7.204834895,6.224289682,6.917751409,7.60829582,7.426134418,5.763354322,6.163929271,6.223186002,5.806267233,6.364740177,6.289128331,6.513376914,6.00145924,6.649233468,6.066461313,6.025697582,..,..,..
Vietnam,VNM,21.05,105.55,0.324280765,0.319024157,0.313770455,0.330345655,0.370352788,0.404057351,0.473884388,0.606948117,0.629679947,0.622650871,0.691020496,0.777658384,0.89022065,0.978870449,1.111901201,1.191177164,1.233275634,1.24524342,1.386217823,1.495317559,1.641940299,1.73194832,1.601421114,1.640272617,1.83966563,..,..,..